{
  "type": "FeatureCollection",
  "features": [
    {
      "type": "Feature",
      "geometry": {
        "type": "Point",
        "coordinates": [
          13.394428,
          52.531716
        ]
      },
      "properties": {
        "marker-symbol": "bar",
        "Name": "Redwood Bar",
        "Address": "Bergstraße 25, 10115 Berlin"
      }  
    },
    {
      "type": "Feature",
      "geometry": {
        "type": "Point",
        "coordinates": [
          13.471145,
          52.510246
        ]
      },
      "properties": {
        "marker-symbol": "bar",
        "Name": "The Antlered Bunny",
        "Address": "Oderstraße 7, 10247 Berlin"
      }  
    },
    {
      "type": "Feature",
      "geometry": {
        "type": "Point",
        "coordinates": [
          13.442523,
          52.501099
        ]
      },
      "properties": {
        "marker-symbol": "fast-food",
        "Name": "Burgermeister",
        "Address": "Oberbaumstraße 8, 10997 Berlin"
      }  
    },
    {
      "type": "Feature",
      "geometry": {
        "type": "Point",
        "coordinates": [
          13.4221,
          52.49623
        ]
      },
      "properties": {
        "marker-symbol": "restaurant",
        "Name": "Cocolo Ramen Bar",
        "Address": "Paul-Lincke-Ufer 39, 10999 Berlin"
      }  
    },
    {
      "type": "Feature",
      "geometry": {
        "type": "Point",
        "coordinates": [
          13.431472,
          52.502166
        ]
      },
      "properties": {
        "marker-symbol": "restaurant",
        "Name": "Big Stuff Smoked BBQ",
        "Address": "Eisenbahnstraße 42/43, 10997 Berlin"
      }  
    },
    {
      "type": "Feature",
      "geometry": {
        "type": "Point",
        "coordinates": [
          13.385776,
          52.52712
        ]
      },
      "properties": {
        "marker-symbol": "restaurant",
        "Name": "Chicago Williams BBQ",
        "Address": "Hannoversche Straße 2, 10115 Berlin"
      }  
    },
    {
      "type": "Feature",
      "geometry": {
        "type": "Point",
        "coordinates": [
          13.439258,
          52.499458
        ]
      },
      "properties": {
        "marker-symbol": "bar",
        "Name": "Hopfenreich Craft Beer Bar",
        "Address": "Sorauer Straße 31, 10997 Berlin"
      }  
    },
    {
      "type": "Feature",
      "geometry": {
        "type": "Point",
        "coordinates": [
          13.397643,
          52.532392
        ]
      },
      "properties": {
        "marker-symbol": "restaurant",
        "Name": "Tommis Burger Joint",
        "Address": "Invalidenstraße 160, 10115 Berlin"
      }  
    },
    {
      "type": "Feature",
      "geometry": {
        "type": "Point",
        "coordinates": [
          13.425854,
          52.498557
        ]
      },
      "properties": {
        "marker-symbol": "restaurant",
        "Name": "Kimchi Princess",
        "Address": "Skalitzer Str. 36, 10999 Berlin"
      }  
    }
  ]
}
