{
  "type": "FeatureCollection",
  "features": [
    {
      "type": "Feature",
      "geometry": {
        "type": "Point",
        "coordinates": [
          13.394428,
          52.531716
        ]
      },
      "properties": {
        "marker-symbol": "bar",
        "Name": "Redwood Bar",
        "Address": "Bergstraße 25, 10115 Berlin"
      }  
    },
    {
      "type": "Feature",
      "geometry": {
        "type": "Point",
        "coordinates": [
          13.471145,
          52.510246
        ]
      },
      "properties": {
        "marker-symbol": "bar",
        "Name": "The Antlered Bunny",
        "Address": "Oderstraße 7, 10247 Berlin"
      }  
    },
    {
      "type": "Feature",
      "geometry": {
        "type": "Point",
        "coordinates": [
          13.442523,
          52.501099
        ]
      },
      "properties": {
        "marker-symbol": "fast-food",
        "Name": "Burgermeister",
        "Address": "Oberbaumstraße 8, 10997 Berlin"
      }  
    },
    {
      "type": "Feature",
      "geometry": {
        "type": "Point",
        "coordinates": [
          13.4221,
          52.49623
        ]
      },
      "properties": {
        "marker-symbol": "restaurant",
        "Name": "Cocolo Ramen Bar",
        "Address": "Paul-Lincke-Ufer 39, 10999 Berlin"
      }  
    },
    {
      "type": "Feature",
      "geometry": {
        "type": "Point",
        "coordinates": [
          13.431472,
          52.502166
        ]
      },
      "properties": {
        "marker-symbol": "restaurant",
        "Name": "Big Stuff Smoked BBQ",
        "Address": "Eisenbahnstraße 42/43, 10997 Berlin"
      }  
    },
    {
      "type": "Feature",
      "geometry": {
        "type": "Point",
        "coordinates": [
          13.385776,
          52.52712
        ]
      },
      "properties": {
        "marker-symbol": "restaurant",
        "Name": "Chicago Williams BBQ",
        "Address": "Hannoversche Straße 2, 10115 Berlin"
      }  
    },
    {
      "type": "Feature",
      "geometry": {
        "type": "Point",
        "coordinates": [
          13.439258,
          52.499458
        ]
      },
      "properties": {
        "marker-symbol": "bar",
        "Name": "Hopfenreich Craft Beer Bar",
        "Address": "Sorauer Straße 31, 10997 Berlin"
      }  
    },
    {
      "type": "Feature",
      "geometry": {
        "type": "Point",
        "coordinates": [
          13.397643,
          52.532392
        ]
      },
      "properties": {
        "marker-symbol": "fast-food",
        "Name": "Tommis Burger Joint",
        "Address": "Invalidenstraße 160, 10115 Berlin"
      }  
    },
    {
      "type": "Feature",
      "geometry": {
        "type": "Point",
        "coordinates": [
          13.425854,
          52.498557
        ]
      },
      "properties": {
        "marker-symbol": "restaurant",
        "Name": "Kimchi Princess",
        "Address": "Skalitzer Str. 36, 10999 Berlin"
      }  
    },
    {
      "type": "Feature",
      "geometry": {
        "type": "Point",
        "coordinates": [
          13.417816,
          52.501604
        ]
      },
      "properties": {
        "marker-symbol": "restaurant",
        "Name": "Santa Maria Mexican Diner",
        "Address": "Oranienstraße 170, 10999 Berlin"
      }  
    },
    {
      "type": "Feature",
      "geometry": {
        "type": "Point",
        "coordinates": [
          13.42438,
          52.49755
        ]
      },
      "properties": {
        "marker-symbol": "bar",
        "Name": "Lugosi Bar",
        "Address": "Reichenberger Straße 152, 10999 Berlin"
      }  
    },
    {
      "type": "Feature",
      "geometry": {
        "type": "Point",
        "coordinates": [
          13.417897,
          52.492965
        ]
      },
      "properties": {
        "marker-symbol": "fast-food",
        "Name": "Room 77",
        "Address": "Graefestraße 77, 10967 Berlin"
      }  
    },
    {
      "type": "Feature",
      "geometry": {
        "type": "Point",
        "coordinates": [
          13.417498,
          52.500677
        ]
      },
      "properties": {
        "marker-symbol": "restaurant",
        "Name": "Mercosy",
        "Address": "Dresdener Straße 11, 10999 Berlin"
      }  
    },
    {
      "type": "Feature",
      "geometry": {
        "type": "Point",
        "coordinates": [
          13.418079,
          52.493646
        ]
      },
      "properties": {
        "marker-symbol": "restaurant",
        "Name": "Devil's Kitchen & Bar",
        "Address": "Graefestraße 11, 10967 Berlin"
      }  
    },
    {
      "type": "Feature",
      "geometry": {
        "type": "Point",
        "coordinates": [
          13.40972,
          52.528207
        ]
      },
      "properties": {
        "marker-symbol": "bar",
        "Name": "Kaschk",
        "Address": "Linienstraße 40, 10178 Berlin"
      }  
    },
    {
      "type": "Feature",
      "geometry": {
        "type": "Point",
        "coordinates": [
          13.431337,
          52.502059
        ]
      },
      "properties": {
        "marker-symbol": "bar",
        "Name": "Heidenpeters",
        "Address": "Eisenbahnstraße 42-43, 10997 Berlin"
      }  
    },
    {
      "type": "Feature",
      "geometry": {
        "type": "Point",
        "coordinates": [
          13.39355,
          52.541889
        ]
      },
      "properties": {
        "marker-symbol": "restaurant",
        "Name": "Volta",
        "Address": "Brunnenstraße 73, 13355 Berlin"
      }  
    }
  ]
}
